[
  {
    "city": "서울",
    "name": "관악산",
    "type": "관광지",
    "latitude": 37.4458,
    "longitude": 126.9615,
    "description": "서울 남서부에 위치한 명산으로, 사계절 내내 등산객과 시민들에게 사랑받는 자연 명소입니다. 정상에 오르면 서울 시내와 한강, 멀리 북한산까지 조망할 수 있으며, 다양한 등산로와 휴식 공간이 잘 조성되어 있습니다. 봄에는 진달래, 가을에는 단풍이 아름답고, 가족 단위 나들이에도 적합합니다.",
    "image": "관악산",
    "address": "서울특별시 관악구 신림동 산1-1",
    "openTime": "상시 개방",
    "siteURL": "https://parks.seoul.go.kr/template/sub/gwanaksan.do"
  },
  {
    "city": "서울",
    "name": "샤로수길",
    "type": "관광지",
    "latitude": 37.4782,
    "longitude": 126.9527,
    "description": "서울대입구역 근처에 위치한 샤로수길은 감성 카페, 트렌디한 소품샵, 다양한 맛집이 모여 있는 젊은이들의 핫플레이스입니다. 골목골목마다 개성 있는 가게들이 즐비해 있어 산책하며 구경하기 좋고, 주말에는 다양한 플리마켓과 문화행사도 열립니다.",
    "image": "샤로수길",
    "address": "서울특별시 관악구 관악로14길 70",
    "openTime": "상시 개방",
    "siteURL": "https://korean.visitseoul.net/attractions/%EC%83%A4%EB%A1%9C%EC%88%98%EA%B8%B8_/31260"
  },
  {
    "city": "서울",
    "name": "호림박물관",
    "type": "관광지",
    "latitude": 37.4785,
    "longitude": 126.9512,
    "description": "한국 전통 문화유산을 전시하는 사립 박물관으로, 도자기, 불교미술, 금속공예 등 다양한 유물을 소장하고 있습니다. 정기적으로 특별전과 체험 프로그램이 열리며, 조용한 분위기에서 우리 문화의 아름다움을 느낄 수 있습니다.",
    "image": "호림박물관",
    "address": "서울특별시 관악구 남부순환로 152길 117",
    "openTime": "10:00 ~ 18:00",
    "siteURL": "https://www.horimartcenter.org/"
  },
  {
    "city": "서울",
    "name": "낙성대공원",
    "type": "관광지",
    "latitude": 37.4769,
    "longitude": 126.9636,
    "description": "고려시대 명장 강감찬 장군의 생가터로 알려진 낙성대공원은 조용한 산책로와 유적지, 어린이 놀이터, 야외무대 등 다양한 시설이 갖추어져 있습니다. 봄에는 벚꽃이 아름답고, 가족 단위 나들이와 역사 체험에 적합한 공간입니다.",
    "image": "낙성대공원",
    "address": "서울특별시 관악구 낙성대로 77",
    "openTime": "05:00 ~ 22:00",
    "siteURL": "https://parks.seoul.go.kr/template/sub/nakseongdae.do"
  },
  {
    "city": "서울",
    "name": "도림천",
    "type": "관광지",
    "latitude": 37.4928,
    "longitude": 126.9031,
    "description": "서울 남부 지역을 흐르는 도림천은 산책로와 자전거도로가 잘 조성되어 있어 도심 속에서 자연을 느끼며 운동하기 좋은 곳입니다. 봄에는 벚꽃길, 여름에는 시원한 물놀이, 가을에는 단풍 산책로로 인기가 많습니다.",
    "image": "도림천",
    "address": "서울특별시 영등포구 도림동 230-1",
    "openTime": "상시 개방",
    "siteURL": "https://www.ydp.go.kr/www/contents.do?key=1462"
  },
  {
    "city": "서울",
    "name": "보라매공원",
    "type": "관광지",
    "latitude": 37.4996,
    "longitude": 126.9188,
    "description": "옛 공군사관학교 터에 조성된 대형 도심 공원으로, 넓은 잔디밭과 산책로, 다양한 운동시설, 어린이 놀이터, 생태연못 등이 있어 시민들의 휴식과 여가를 위한 최적의 공간입니다. 주말에는 가족 단위 방문객이 많으며, 각종 문화행사도 자주 열립니다.",
    "image": "보라매공원",
    "address": "서울특별시 동작구 여의대방로20길 33",
    "openTime": "05:00 ~ 22:00",
    "siteURL": "https://parks.seoul.go.kr/template/sub/boramae.do"
  },
  {
    "city": "서울",
    "name": "순대타운",
    "type": "맛집",
    "latitude": 37.5653,
    "longitude": 127.0349,
    "description": "서울 신림동에 위치한 순대타운은 다양한 순대국밥, 볶음 순대, 순대전골 등 순대 요리를 전문으로 하는 식당들이 모여 있는 거리입니다. 저렴한 가격에 푸짐한 한 끼를 즐길 수 있어 현지인과 관광객 모두에게 인기입니다.",
    "image": "순대타운",
    "address": "서울특별시 관악구 신림로 340",
    "openTime": "09:00 ~ 22:00",
    "siteURL": "https://korean.visitseoul.net/food/%EC%8B%A0%EB%A6%BC%EB%8F%99-%EC%88%9C%EB%8C%80%ED%83%80%EC%9A%B4_/31263"
  },
  {
    "city": "서울",
    "name": "서울밥집",
    "type": "맛집",
    "latitude": 37.4775,
    "longitude": 126.9521,
    "description": "샤로수길 인근에 위치한 서울밥집은 정갈한 반찬과 푸짐한 한식 식사로 인기를 끄는 밥집입니다. 깔끔한 분위기와 친절한 서비스, 합리적인 가격으로 현지 학생들과 직장인들에게 사랑받고 있습니다.",
    "image": "서울밥집",
    "address": "서울특별시 관악구 관악로14길 69",
    "openTime": "11:00 ~ 21:00",
    "siteURL": "https://map.naver.com/p/entry/place/37737781"
  },
  {
    "city": "서울",
    "name": "텐동요츠야",
    "type": "맛집",
    "latitude": 37.4764,
    "longitude": 126.9515,
    "description": "샤로수길에 위치한 일본식 튀김 덮밥 전문점으로, 바삭한 튀김과 진한 소스가 어우러진 정통 텐동을 맛볼 수 있습니다. 오픈 시간에는 웨이팅이 있을 정도로 인기 있는 맛집입니다.",
    "image": "텐동요츠야",
    "address": "서울특별시 관악구 관악로14길 66",
    "openTime": "11:30 ~ 21:30",
    "siteURL": "https://map.naver.com/p/entry/place/1178859442"
  },
  {
    "city": "서울",
    "name": "정담은보쌈",
    "type": "맛집",
    "latitude": 37.4761,
    "longitude": 126.9529,
    "description": "샤로수길 인근의 보쌈 전문점으로, 부드러운 수육과 신선한 쌈채소, 다양한 반찬이 어우러진 푸짐한 한 상을 즐길 수 있습니다. 가족, 친구, 직장 동료와 함께 방문하기 좋은 식당입니다.",
    "image": "정담은보쌈",
    "address": "서울특별시 관악구 관악로14길 67",
    "openTime": "10:30 ~ 22:00",
    "siteURL": "https://map.naver.com/p/entry/place/1342348882"
  }
]
